---
- :station: '高鐵桃園站'
  :latitude: '25.0137765'
  :longitude: '121.2138509'
- :station: '高鐵新竹站'
  :latitude: '24.8076925'
  :longitude: '121.0381274'
- :station: '高鐵苗栗站'
  :latitude: '24.6057619'
  :longitude: '120.8231581'
- :station: '高鐵台中站'
  :latitude: '24.111746'
  :longitude: '120.6135428'
- :station: '高鐵彰化站'
  :latitude: '23.8743302'
  :longitude: '120.572521'
- :station: '高鐵雲林站'
  :latitude: '23.7363243'
  :longitude: '120.4143437'
- :station: '高鐵嘉義站'
  :latitude: '23.4592287'
  :longitude: '120.3207601'
- :station: '高鐵台南站'
  :latitude: '22.9243444'
  :longitude: '120.2836777'
- :station: '高鐵左營站'
  :latitude: '22.6876501'
  :longitude: '120.3060722'